[
  {
    "formatted_address": "日本、北海道江別市",
    "name": "江別市",
    "place_id": "ChIJXSZ2uGQyC18RNGjO8UVOtTI",
    "geometry": {
      "location": {
        "lat": 43.1037667,
        "lng": 141.5362413
      }
    },
    "prefecture": "北海道"
  },
  {
    "formatted_address": "日本、北海道千歳市",
    "name": "千歳市",
    "place_id": "ChIJO-USq4MmdV8RYREnMTSMkns",
    "geometry": {
      "location": {
        "lat": 42.82128669999999,
        "lng": 141.6510125
      }
    },
    "prefecture": "北海道"
  },
  {
    "formatted_address": "日本、北海道札幌市",
    "name": "札幌市",
    "place_id": "ChIJMzaXWnXUCl8R1bqHRp1-kzM",
    "geometry": {
      "location": {
        "lat": 43.0617713,
        "lng": 141.3544507
      }
    },
    "prefecture": "北海道"
  },
  {
    "formatted_address": "日本、北海道岩見沢市",
    "name": "岩見沢市",
    "place_id": "ChIJNTQoFndMC18R_jF13XO3p0Q",
    "geometry": {
      "location": {
        "lat": 43.1753202,
        "lng": 141.8309669
      }
    },
    "prefecture": "北海道"
  },
  {
    "formatted_address": "日本、北海道滝川市",
    "name": "滝川市",
    "place_id": "ChIJe66trmSXDF8RpUlfzMjn7vk",
    "geometry": {
      "location": {
        "lat": 43.5578133,
        "lng": 141.9103331
      }
    },
    "prefecture": "北海道"
  },
  {
    "formatted_address": "日本、北海道深川市",
    "name": "深川市",
    "place_id": "ChIJ6e7j5knxDF8RMOaYZD41JlY",
    "geometry": {
      "location": {
        "lat": 43.7232882,
        "lng": 142.0533179
      }
    },
    "prefecture": "北海道"
  },
  {
    "formatted_address": "日本、北海道小樽市",
    "name": "小樽市",
    "place_id": "ChIJO3nvmK7fCl8RodlajWJ7Pgo",
    "geometry": {
      "location": {
        "lat": 43.1902372,
        "lng": 140.994172
      }
    },
    "prefecture": "北海道"
  },
  {
    "formatted_address": "日本、北海道虻田郡倶知安町",
    "name": "倶知安町",
    "place_id": "ChIJfTTAx-q5Cl8Rqx93lDjX1c0",
    "geometry": {
      "location": {
        "lat": 42.9023044,
        "lng": 140.7565005
      }
    },
    "prefecture": "北海道"
  },
  {
    "formatted_address": "日本、北海道函館市",
    "name": "函館市",
    "place_id": "ChIJIU281S1cnl8RW8N4lip9fZE",
    "geometry": {
      "location": {
        "lat": 41.7686961,
        "lng": 140.7290599
      }
    },
    "prefecture": "北海道"
  },
  {
    "formatted_address": "日本、北海道山越郡長万部町",
    "name": "長万部町",
    "place_id": "ChIJTbd-yur0n18RHD0XmLcs-ts",
    "geometry": {
      "location": {
        "lat": 42.5135467,
        "lng": 140.380348
      }
    },
    "prefecture": "北海道"
  },
  {
    "formatted_address": "日本、北海道檜山郡江差町",
    "name": "江差町",
    "place_id": "ChIJMYy-Nt4en18ROiAzgYaiZBk",
    "geometry": {
      "location": {
        "lat": 41.8692269,
        "lng": 140.1275273
      }
    },
    "prefecture": "北海道"
  },
  {
    "formatted_address": "日本、北海道苫小牧市",
    "name": "苫小牧市",
    "place_id": "ChIJiSKzxdUZdV8RDVulphgOYG4",
    "geometry": {
      "location": {
        "lat": 42.63124639999999,
        "lng": 141.6031222
      }
    },
    "prefecture": "北海道"
  },
  {
    "formatted_address": "日本、北海道室蘭市",
    "name": "室蘭市",
    "place_id": "ChIJXT2vKcnbn18RDbMPCapO1C8",
    "geometry": {
      "location": {
        "lat": 42.3151792,
        "lng": 140.9737666
      }
    },
    "prefecture": "北海道"
  },
  {
    "formatted_address": "日本、北海道浦河郡浦河町",
    "name": "浦河町",
    "place_id": "ChIJS_ZTecImdF8RdXzdBoUjOEo",
    "geometry": {
      "location": {
        "lat": 42.1686147,
        "lng": 142.7684545
      }
    },
    "prefecture": "北海道"
  },
  {
    "formatted_address": "日本、北海道旭川市",
    "name": "旭川市",
    "place_id": "ChIJwwqCmgznDF8RsgnBr9YtEn4",
    "geometry": {
      "location": {
        "lat": 43.7708833,
        "lng": 142.3650083
      }
    },
    "prefecture": "北海道"
  },
  {
    "formatted_address": "日本、北海道士別市",
    "name": "士別市",
    "place_id": "ChIJPYlg32anDV8RRBKQk3l-1OE",
    "geometry": {
      "location": {
        "lat": 44.1786188,
        "lng": 142.4001131
      }
    },
    "prefecture": "北海道"
  },
  {
    "formatted_address": "日本、北海道名寄市",
    "name": "名寄市",
    "place_id": "ChIJEzoT49aVDV8Ra2LVHLOyY2U",
    "geometry": {
      "location": {
        "lat": 44.3560311,
        "lng": 142.4631977
      }
    },
    "prefecture": "北海道"
  },
  {
    "formatted_address": "日本、北海道留萌市",
    "name": "留萌市",
    "place_id": "ChIJJQoE_zFhDF8RPbceFPIfZk4",
    "geometry": {
      "location": {
        "lat": 43.9410074,
        "lng": 141.6369432
      }
    },
    "prefecture": "北海道"
  },
  {
    "formatted_address": "日本、北海道稚内市",
    "name": "稚内市",
    "place_id": "ChIJYytB70EwEF8RTMI1gt_NSGo",
    "geometry": {
      "location": {
        "lat": 45.4156307,
        "lng": 141.6733641
      }
    },
    "prefecture": "北海道"
  },
  {
    "formatted_address": "日本、北海道網走市",
    "name": "網走市",
    "place_id": "ChIJ8xP4PUE2bV8RnzJvgDoJv6U",
    "geometry": {
      "location": {
        "lat": 44.0206059,
        "lng": 144.2734837
      }
    },
    "prefecture": "北海道"
  },
  {
    "formatted_address": "日本、北海道北見市",
    "name": "北見市",
    "place_id": "ChIJJyl2-6JVDV8RNT7L_Uif_sg",
    "geometry": {
      "location": {
        "lat": 43.8039761,
        "lng": 143.8957837
      }
    },
    "prefecture": "北海道"
  },
  {
    "formatted_address": "日本、北海道紋別市",
    "name": "紋別市",
    "place_id": "ChIJs1lAMo2cEl8RiCwSMG7QBh0",
    "geometry": {
      "location": {
        "lat": 44.3564386,
        "lng": 143.3543524
      }
    },
    "prefecture": "北海道"
  },
  {
    "formatted_address": "日本、北海道帯広市",
    "name": "帯広市",
    "place_id": "ChIJ5-d2UcSHc18RyHbb6bToaxc",
    "geometry": {
      "location": {
        "lat": 42.9233354,
        "lng": 143.197199
      }
    },
    "prefecture": "北海道"
  },
  {
    "formatted_address": "日本、北海道釧路市",
    "name": "釧路市",
    "place_id": "ChIJ0-NaIlRdcl8ReqtC8oEIzgQ",
    "geometry": {
      "location": {
        "lat": 42.9849413,
        "lng": 144.3818041
      }
    },
    "prefecture": "北海道"
  },
  {
    "formatted_address": "日本、北海道根室市",
    "name": "根室市",
    "place_id": "ChIJtW1uJHUvbF8RTpqPxlvQvKA",
    "geometry": {
      "location": {
        "lat": 43.3301005,
        "lng": 145.5828181
      }
    },
    "prefecture": "北海道"
  },
  {
    "formatted_address": "日本、北海道沙流郡日高町",
    "name": "日高町",
    "place_id": "ChIJg2MLs3r1dF8RIVYAM82vBeI",
    "geometry": {
      "location": {
        "lat": 42.48032569999999,
        "lng": 142.0744267
      }
    },
    "prefecture": "北海道"
  },
  {
    "formatted_address": "日本、北海道富良野市",
    "name": "富良野市",
    "place_id": "ChIJj1EPMdVPc18RKt8wkJs2fB8",
    "geometry": {
      "location": {
        "lat": 43.3420458,
        "lng": 142.3831624
      }
    },
    "prefecture": "北海道"
  },
  {
    "formatted_address": "日本、北海道枝幸郡枝幸町",
    "name": "枝幸町",
    "place_id": "ChIJm6fDkCH4EV8RAmB7qkFw_bY",
    "geometry": {
      "location": {
        "lat": 44.9387043,
        "lng": 142.5813978
      }
    },
    "prefecture": "北海道"
  },
  {
    "formatted_address": "日本、北海道川上郡弟子屈町",
    "name": "弟子屈町",
    "place_id": "ChIJ8Qolai96bV8RQJ81e0F8ogw",
    "geometry": {
      "location": {
        "lat": 43.48534799999999,
        "lng": 144.4592988
      }
    },
    "prefecture": "北海道"
  },
  {
    "formatted_address": "日本、青森県",
    "name": "青森県",
    "place_id": "ChIJR60vIL2bm18Ro_kApp-uBak",
    "geometry": {
      "location": {
        "lat": 40.7657077,
        "lng": 140.9175879
      }
    },
    "prefecture": "青森県"
  },
  {
    "formatted_address": "日本、青森県八戸市",
    "name": "八戸市",
    "place_id": "ChIJa5IIGm1Nm18RhDfamEYS3gU",
    "geometry": {
      "location": {
        "lat": 40.5122055,
        "lng": 141.4882743
      }
    },
    "prefecture": "青森県"
  },
  {
    "formatted_address": "日本、青森県弘前市",
    "name": "弘前市",
    "place_id": "ChIJ-w6U6pH_ml8RkSwkioTlpXU",
    "geometry": {
      "location": {
        "lat": 40.6030626,
        "lng": 140.4640543
      }
    },
    "prefecture": "青森県"
  },
  {
    "formatted_address": "日本、青森県十和田市",
    "name": "十和田市",
    "place_id": "ChIJYzcvYZk_m18ReGosRqypTH8",
    "geometry": {
      "location": {
        "lat": 40.6126011,
        "lng": 141.2069318
      }
    },
    "prefecture": "青森県"
  },
  {
    "formatted_address": "日本、青森県むつ市",
    "name": "むつ市",
    "place_id": "ChIJmSRIktoVnF8Rv-lDdImwNGk",
    "geometry": {
      "location": {
        "lat": 41.2927986,
        "lng": 141.1834683
      }
    },
    "prefecture": "青森県"
  },
  {
    "formatted_address": "日本、青森県五所川原市",
    "name": "五所川原市",
    "place_id": "ChIJ27K-Rky-m18Rw6HwD-OnX58",
    "geometry": {
      "location": {
        "lat": 40.8076933,
        "lng": 140.4461156
      }
    },
    "prefecture": "青森県"
  },
  {
    "formatted_address": "日本、岩手県盛岡市",
    "name": "盛岡市",
    "place_id": "ChIJAf68lVF1hV8RllYAW94tPB8",
    "geometry": {
      "location": {
        "lat": 39.7019558,
        "lng": 141.1543303
      }
    },
    "prefecture": "岩手県"
  },
  {
    "formatted_address": "日本、岩手県一関市",
    "name": "一関市",
    "place_id": "ChIJR0dUqjzQiF8RX-8lSsz0zXw",
    "geometry": {
      "location": {
        "lat": 38.934703,
        "lng": 141.1268764
      }
    },
    "prefecture": "岩手県"
  },
  {
    "formatted_address": "日本、岩手県釜石市",
    "name": "釜石市",
    "place_id": "ChIJO5BE1jsJhl8RDxQAKuNwKdc",
    "geometry": {
      "location": {
        "lat": 39.27580460000001,
        "lng": 141.8857275
      }
    },
    "prefecture": "岩手県"
  },
  {
    "formatted_address": "日本、岩手県北上市",
    "name": "北上市",
    "place_id": "ChIJ0TDOF4tCj18R31InIBLGN48",
    "geometry": {
      "location": {
        "lat": 39.2867738,
        "lng": 141.1131535
      }
    },
    "prefecture": "岩手県"
  },
  {
    "formatted_address": "日本、岩手県宮古市",
    "name": "宮古市",
    "place_id": "ChIJY0vkN_y1hV8RVfbjRMIXF9s",
    "geometry": {
      "location": {
        "lat": 39.6394645,
        "lng": 141.9462611
      }
    },
    "prefecture": "岩手県"
  },
  {
    "formatted_address": "日本、岩手県久慈市",
    "name": "久慈市",
    "place_id": "ChIJJWkaTbnrhF8RnOmP2NIFRu0",
    "geometry": {
      "location": {
        "lat": 40.190462,
        "lng": 141.7755843
      }
    },
    "prefecture": "岩手県"
  },
  {
    "formatted_address": "日本、岩手県二戸市",
    "name": "二戸市",
    "place_id": "ChIJtyqUrMzWhF8R3Lu_M60RG78",
    "geometry": {
      "location": {
        "lat": 40.2711044,
        "lng": 141.3050625
      }
    },
    "prefecture": "岩手県"
  },
  {
    "formatted_address": "日本、岩手県大船渡市",
    "name": "大船渡市",
    "place_id": "ChIJS9T5dR4ehl8RAunJPyWVW1Y",
    "geometry": {
      "location": {
        "lat": 39.0819002,
        "lng": 141.7084933
      }
    },
    "prefecture": "岩手県"
  },
  {
    "formatted_address": "日本、岩手県花巻市",
    "name": "花巻市",
    "place_id": "ChIJgz0EI29gj18RQj6Zmh87hJA",
    "geometry": {
      "location": {
        "lat": 39.3886253,
        "lng": 141.1168998
      }
    },
    "prefecture": "岩手県"
  },
  {
    "formatted_address": "日本、岩手県奥州市",
    "name": "奥州市",
    "place_id": "ChIJFxwtMBQ2j18RC4-wyBi6z8M",
    "geometry": {
      "location": {
        "lat": 39.1444106,
        "lng": 141.1392153
      }
    },
    "prefecture": "岩手県"
  },
  {
    "formatted_address": "日本、宮城県仙台市",
    "name": "仙台市",
    "place_id": "ChIJ01XNMO4qil8R7rFGuOB5Jbo",
    "geometry": {
      "location": {
        "lat": 38.268195,
        "lng": 140.869418
      }
    },
    "prefecture": "宮城県"
  },
  {
    "formatted_address": "日本、宮城県石巻市",
    "name": "石巻市",
    "place_id": "ChIJHSxGaSyliV8RRZUi_qbWR9I",
    "geometry": {
      "location": {
        "lat": 38.434332,
        "lng": 141.3028682
      }
    },
    "prefecture": "宮城県"
  },
  {
    "formatted_address": "日本、宮城県大崎市",
    "name": "大崎市",
    "place_id": "ChIJPxjwvzw-iV8RIoUF4Zv4xmM",
    "geometry": {
      "location": {
        "lat": 38.5770849,
        "lng": 140.9556308
      }
    },
    "prefecture": "宮城県"
  },
  {
    "formatted_address": "日本、宮城県気仙沼市",
    "name": "気仙沼市",
    "place_id": "ChIJu2OZ_v6UiF8Rd4p3l7LihwA",
    "geometry": {
      "location": {
        "lat": 38.907641,
        "lng": 141.5703316
      }
    },
    "prefecture": "宮城県"
  },
  {
    "formatted_address": "日本、宮城県白石市",
    "name": "白石市",
    "place_id": "ChIJRTlXkUJCil8RiIJS4NtRnXc",
    "geometry": {
      "location": {
        "lat": 38.0022622,
        "lng": 140.6199545
      }
    },
    "prefecture": "宮城県"
  },
  {
    "formatted_address": "日本、秋田県",
    "name": "秋田県",
    "place_id": "ChIJv_Eu0V7rj18REhxcYOz7fZo",
    "geometry": {
      "location": {
        "lat": 40.1376293,
        "lng": 140.334341
      }
    },
    "prefecture": "秋田県"
  },
  {
    "formatted_address": "日本、秋田県大館市",
    "name": "大館市",
    "place_id": "ChIJ-91rvY_Gml8RVfn27WHJR-I",
    "geometry": {
      "location": {
        "lat": 40.2714146,
        "lng": 140.5641387
      }
    },
    "prefecture": "秋田県"
  },
  {
    "formatted_address": "日本、秋田県能代市",
    "name": "能代市",
    "place_id": "ChIJ_e6X3n-iml8R19a7PFxtx2s",
    "geometry": {
      "location": {
        "lat": 40.2118632,
        "lng": 140.027125
      }
    },
    "prefecture": "秋田県"
  },
  {
    "formatted_address": "日本、秋田県由利本荘市",
    "name": "由利本荘市",
    "place_id": "ChIJx3Oz7oxVjl8RHowf8DckCF4",
    "geometry": {
      "location": {
        "lat": 39.38584720000001,
        "lng": 140.048885
      }
    },
    "prefecture": "秋田県"
  },
  {
    "formatted_address": "日本、秋田県大仙市",
    "name": "大仙市",
    "place_id": "ChIJ9SgwTWCYj18RZzNhGFKSEgA",
    "geometry": {
      "location": {
        "lat": 39.453276,
        "lng": 140.4754971
      }
    },
    "prefecture": "秋田県"
  },
  {
    "formatted_address": "日本、秋田県横手市",
    "name": "横手市",
    "place_id": "ChIJcYi7DIMbj18RwTWELry2cP4",
    "geometry": {
      "location": {
        "lat": 39.3138283,
        "lng": 140.5665878
      }
    },
    "prefecture": "秋田県"
  },
  {
    "formatted_address": "日本、秋田県湯沢市",
    "name": "湯沢市",
    "place_id": "ChIJuzNgxcXbjl8R2hcebbjzgFA",
    "geometry": {
      "location": {
        "lat": 39.1643877,
        "lng": 140.4957009
      }
    },
    "prefecture": "秋田県"
  },
  {
    "formatted_address": "日本、山形県",
    "name": "山形県",
    "place_id": "ChIJbeLoh3fsi18RXo9kabDE3OY",
    "geometry": {
      "location": {
        "lat": 38.5370564,
        "lng": 140.1435198
      }
    },
    "prefecture": "山形県"
  },
  {
    "formatted_address": "日本、山形県米沢市",
    "name": "米沢市",
    "place_id": "ChIJRW93fNftil8R942L7zfvrwc",
    "geometry": {
      "location": {
        "lat": 37.9223201,
        "lng": 140.1167445
      }
    },
    "prefecture": "山形県"
  },
  {
    "formatted_address": "日本、〒996-0025 山形県新庄市若葉町１２−５５",
    "name": "山形県立新庄病院",
    "place_id": "ChIJe-n0J0itjl8RBA_3afv67tY",
    "geometry": {
      "location": {
        "lat": 38.7588442,
        "lng": 140.3022882
      }
    },
    "prefecture": "山形県"
  },
  {
    "formatted_address": "日本、山形県酒田市",
    "name": "酒田市",
    "place_id": "ChIJo1dVzT2bjl8RxenugqXPXRQ",
    "geometry": {
      "location": {
        "lat": 38.9147809,
        "lng": 139.8366436
      }
    },
    "prefecture": "山形県"
  },
  {
    "formatted_address": "日本、山形県鶴岡市",
    "name": "鶴岡市",
    "place_id": "ChIJKxWZzi51jF8R15BilRYA6sY",
    "geometry": {
      "location": {
        "lat": 38.7271972,
        "lng": 139.8267422
      }
    },
    "prefecture": "山形県"
  },
  {
    "formatted_address": "日本、福島県",
    "name": "福島県",
    "place_id": "ChIJL9XcbYEEIGARXEbW0MGmHzQ",
    "geometry": {
      "location": {
        "lat": 37.3834373,
        "lng": 140.1832516
      }
    },
    "prefecture": "福島県"
  },
  {
    "formatted_address": "日本、福島県郡山市",
    "name": "郡山市",
    "place_id": "ChIJk6rAHJkNIGARyzbbcxSRTrI",
    "geometry": {
      "location": {
        "lat": 37.40047759999999,
        "lng": 140.3596822
      }
    },
    "prefecture": "福島県"
  },
  {
    "formatted_address": "日本、福島県白河市",
    "name": "白河市",
    "place_id": "ChIJ4_PsZwU6IGARST3cmQEXkDE",
    "geometry": {
      "location": {
        "lat": 37.1266145,
        "lng": 140.211014
      }
    },
    "prefecture": "福島県"
  },
  {
    "formatted_address": "日本、福島県会津若松市",
    "name": "会津若松市",
    "place_id": "ChIJM5s9z3tV9V8RQYEg09PkYF0",
    "geometry": {
      "location": {
        "lat": 37.4899827,
        "lng": 139.9277486
      }
    },
    "prefecture": "福島県"
  },
  {
    "formatted_address": "日本、福島県いわき市",
    "name": "いわき市",
    "place_id": "ChIJx4sg1UcEIWARU3QHKNgEeoA",
    "geometry": {
      "location": {
        "lat": 37.0505055,
        "lng": 140.8877435
      }
    },
    "prefecture": "福島県"
  },
  {
    "formatted_address": "日本、福島県南相馬市",
    "name": "南相馬市",
    "place_id": "ChIJL127tTaRIGAR0IQjnbsRRkA",
    "geometry": {
      "location": {
        "lat": 37.6422006,
        "lng": 140.957261
      }
    },
    "prefecture": "福島県"
  },
  {
    "formatted_address": "日本、福島県相馬市",
    "name": "相馬市",
    "place_id": "ChIJfU13UK2CIGARuPO08ajeZdg",
    "geometry": {
      "location": {
        "lat": 37.7970426,
        "lng": 140.9190868
      }
    },
    "prefecture": "福島県"
  },
  {
    "formatted_address": "日本、福島県南会津郡南会津町",
    "name": "南会津町",
    "place_id": "ChIJHzKBMEPDH2ARuxwI1BQ8PkI",
    "geometry": {
      "location": {
        "lat": 37.2004645,
        "lng": 139.7738212
      }
    },
    "prefecture": "福島県"
  },
  {
    "formatted_address": "日本、茨城県鹿嶋市",
    "name": "鹿嶋市",
    "place_id": "ChIJVTUHy1xUImAR9La6ASoMVps",
    "geometry": {
      "location": {
        "lat": 35.9656835,
        "lng": 140.6447937
      }
    },
    "prefecture": "茨城県"
  },
  {
    "formatted_address": "日本、茨城県古河市",
    "name": "古河市",
    "place_id": "ChIJC6BY3WCzGGARrCao1Cr4Vfw",
    "geometry": {
      "location": {
        "lat": 36.1787948,
        "lng": 139.7557348
      }
    },
    "prefecture": "茨城県"
  },
  {
    "formatted_address": "日本、茨城県筑西市",
    "name": "筑西市",
    "place_id": "ChIJLdrx-ClVH2AR0dSZA0WVNzE",
    "geometry": {
      "location": {
        "lat": 36.3052343,
        "lng": 139.9794265
      }
    },
    "prefecture": "茨城県"
  },
  {
    "formatted_address": "日本、茨城県土浦市",
    "name": "土浦市",
    "place_id": "ChIJn-WKrcASImAR0NDS_e7uS84",
    "geometry": {
      "location": {
        "lat": 36.0783182,
        "lng": 140.2042457
      }
    },
    "prefecture": "茨城県"
  },
  {
    "formatted_address": "日本、茨城県日立市",
    "name": "日立市",
    "place_id": "ChIJ7SpvDkKBIWARlGDuVCapy1k",
    "geometry": {
      "location": {
        "lat": 36.59912730000001,
        "lng": 140.6504712
      }
    },
    "prefecture": "茨城県"
  },
  {
    "formatted_address": "日本、茨城県水戸市",
    "name": "水戸市",
    "place_id": "ChIJl8Finz8kImARXuZ7K3uIGN0",
    "geometry": {
      "location": {
        "lat": 36.3658764,
        "lng": 140.4713723
      }
    },
    "prefecture": "茨城県"
  },
  {
    "formatted_address": "日本、栃木県足利市",
    "name": "足利市",
    "place_id": "ChIJ7dDztwUiH2ARfFpk4m6PlJU",
    "geometry": {
      "location": {
        "lat": 36.3401874,
        "lng": 139.4497602
      }
    },
    "prefecture": "栃木県"
  },
  {
    "formatted_address": "日本、栃木県宇都宮市",
    "name": "宇都宮市",
    "place_id": "ChIJO4BWk2xmH2ARwlSGeUl3Nck",
    "geometry": {
      "location": {
        "lat": 36.5550745,
        "lng": 139.8826209
      }
    },
    "prefecture": "栃木県"
  },
  {
    "formatted_address": "日本、栃木県小山市",
    "name": "小山市",
    "place_id": "ChIJnT_mBO1OH2ARnoVkxjDxn4o",
    "geometry": {
      "location": {
        "lat": 36.3146653,
        "lng": 139.8001493
      }
    },
    "prefecture": "栃木県"
  },
  {
    "formatted_address": "日本、栃木県日光市",
    "name": "日光市",
    "place_id": "ChIJ0ciaxrekH2ARwNEdlkJrUm8",
    "geometry": {
      "location": {
        "lat": 36.7198987,
        "lng": 139.6982361
      }
    },
    "prefecture": "栃木県"
  },
  {
    "formatted_address": "日本、栃木県那須塩原市",
    "name": "那須塩原市",
    "place_id": "ChIJ52ovyqqIH2ARujh7RuJ0I90",
    "geometry": {
      "location": {
        "lat": 36.9616857,
        "lng": 140.0460727
      }
    },
    "prefecture": "栃木県"
  },
  {
    "formatted_address": "日本、群馬県桐生市",
    "name": "桐生市",
    "place_id": "ChIJNU-kQeT8HmARxjDdxlgk-8w",
    "geometry": {
      "location": {
        "lat": 36.4053581,
        "lng": 139.3304143
      }
    },
    "prefecture": "群馬県"
  },
  {
    "formatted_address": "日本、群馬県渋川市",
    "name": "渋川市",
    "place_id": "ChIJAV2Jvo1gHmARvQulkrPN_xk",
    "geometry": {
      "location": {
        "lat": 36.489471,
        "lng": 139.000443
      }
    },
    "prefecture": "群馬県"
  },
  {
    "formatted_address": "日本、群馬県高崎市",
    "name": "高崎市",
    "place_id": "ChIJFRgmcJuIHmARUb-WsHiMau0",
    "geometry": {
      "location": {
        "lat": 36.3220692,
        "lng": 139.0033576
      }
    },
    "prefecture": "群馬県"
  },
  {
    "formatted_address": "日本、群馬県沼田市",
    "name": "沼田市",
    "place_id": "ChIJfaPM3MhaHmARphH--ih9mLk",
    "geometry": {
      "location": {
        "lat": 36.64615380000001,
        "lng": 139.0441704
      }
    },
    "prefecture": "群馬県"
  },
  {
    "formatted_address": "日本、群馬県前橋市",
    "name": "前橋市",
    "place_id": "ChIJrbBn6t3zHmARVD7ORmWvg98",
    "geometry": {
      "location": {
        "lat": 36.3894669,
        "lng": 139.0634134
      }
    },
    "prefecture": "群馬県"
  },
  {
    "formatted_address": "日本、群馬県吾妻郡草津町",
    "name": "草津町",
    "place_id": "ChIJ6d8D6MrnHWARa5UfW9kZd_0",
    "geometry": {
      "location": {
        "lat": 36.6207181,
        "lng": 138.5960945
      }
    },
    "prefecture": "群馬県"
  },
  {
    "formatted_address": "日本、埼玉県さいたま市",
    "name": "さいたま市",
    "place_id": "ChIJr-eHXCDBGGARXvaiv8DydIw",
    "geometry": {
      "location": {
        "lat": 35.8616486,
        "lng": 139.6454782
      }
    },
    "prefecture": "埼玉県"
  },
  {
    "formatted_address": "日本、埼玉県春日部市",
    "name": "春日部市",
    "place_id": "ChIJi5Eldle5GGARQkIll-mD6JA",
    "geometry": {
      "location": {
        "lat": 35.9752624,
        "lng": 139.752313
      }
    },
    "prefecture": "埼玉県"
  },
  {
    "formatted_address": "日本、埼玉県川越市",
    "name": "川越市",
    "place_id": "ChIJt2YQ9knaGGARnq-5YFvX1d8",
    "geometry": {
      "location": {
        "lat": 35.9251335,
        "lng": 139.4858042
      }
    },
    "prefecture": "埼玉県"
  },
  {
    "formatted_address": "日本、埼玉県熊谷市",
    "name": "熊谷市",
    "place_id": "ChIJPxlBAyEoH2ARtV_2FkxChk0",
    "geometry": {
      "location": {
        "lat": 36.1471963,
        "lng": 139.3889796
      }
    },
    "prefecture": "埼玉県"
  },
  {
    "formatted_address": "日本、埼玉県秩父市",
    "name": "秩父市",
    "place_id": "ChIJq6h_DsOwHmART1vIjpOlkjE",
    "geometry": {
      "location": {
        "lat": 35.9916443,
        "lng": 139.0855869
      }
    },
    "prefecture": "埼玉県"
  },
  {
    "formatted_address": "日本、埼玉県草加市",
    "name": "草加市",
    "place_id": "ChIJR87JdDCRGGARC10Bnx_VC1s",
    "geometry": {
      "location": {
        "lat": 35.8254078,
        "lng": 139.805378
      }
    },
    "prefecture": "埼玉県"
  },
  {
    "formatted_address": "日本、埼玉県所沢市",
    "name": "所沢市",
    "place_id": "ChIJaTJokMHdGGARJNB1gP1jUl0",
    "geometry": {
      "location": {
        "lat": 35.799423,
        "lng": 139.4687112
      }
    },
    "prefecture": "埼玉県"
  },
  {
    "formatted_address": "日本、埼玉県東松山市",
    "name": "東松山市",
    "place_id": "ChIJjaRHKTLVGGARuexPPJL6BXE",
    "geometry": {
      "location": {
        "lat": 36.0422084,
        "lng": 139.399972
      }
    },
    "prefecture": "埼玉県"
  },
  {
    "formatted_address": "日本、千葉県柏市",
    "name": "柏市",
    "place_id": "ChIJxfhERlOdGGARFud6_QOXcS8",
    "geometry": {
      "location": {
        "lat": 35.8675958,
        "lng": 139.9757575
      }
    },
    "prefecture": "千葉県"
  },
  {
    "formatted_address": "日本、千葉県木更津市",
    "name": "木更津市",
    "place_id": "ChIJ_ZgfYJQKGGAR-EFgz8cL2So",
    "geometry": {
      "location": {
        "lat": 35.3812515,
        "lng": 139.9248871
      }
    },
    "prefecture": "千葉県"
  },
  {
    "formatted_address": "日本、千葉県",
    "name": "千葉県",
    "place_id": "ChIJEZUb1l-bImARvnvg_9t3thw",
    "geometry": {
      "location": {
        "lat": 35.3354155,
        "lng": 140.1832516
      }
    },
    "prefecture": "千葉県"
  },
  {
    "formatted_address": "日本、千葉県成田市",
    "name": "成田市",
    "place_id": "ChIJ6xSMCif1ImARLaiU0KcOuPQ",
    "geometry": {
      "location": {
        "lat": 35.7766588,
        "lng": 140.3187418
      }
    },
    "prefecture": "千葉県"
  },
  {
    "formatted_address": "日本、〒111-0053 東京都台東区浅草橋",
    "name": "浅草橋",
    "place_id": "ChIJy9u3lbGOGGAR64cimvJDwnE",
    "geometry": {
      "location": {
        "lat": 35.6990555,
        "lng": 139.7843792
      }
    },
    "prefecture": "東京都"
  },
  {
    "formatted_address": "日本、東京都豊島区池袋",
    "name": "池袋",
    "place_id": "ChIJJ1xYpaCSGGARumLc8TmsILQ",
    "geometry": {
      "location": {
        "lat": 35.7348314,
        "lng": 139.7077314
      }
    },
    "prefecture": "東京都"
  },
  {
    "formatted_address": "日本、〒110-0005 東京都台東区上野",
    "name": "上野",
    "place_id": "ChIJs-soi56OGGARvvSyPcqIups",
    "geometry": {
      "location": {
        "lat": 35.7087296,
        "lng": 139.7741538
      }
    },
    "prefecture": "東京都"
  },
  {
    "formatted_address": "日本、東京都品川区 五反田",
    "name": "五反田",
    "place_id": "ChIJh_ybVrJ6GGARmiCAnUtTj5o",
    "geometry": {
      "location": {
        "lat": 35.62651880000001,
        "lng": 139.7233535
      }
    },
    "prefecture": "東京都"
  },
  {
    "formatted_address": "日本、東京都新宿区",
    "name": "新宿区",
    "place_id": "ChIJS_23WSCNGGAR0u8y4o_GYew",
    "geometry": {
      "location": {
        "lat": 35.6938253,
        "lng": 139.7033559
      }
    },
    "prefecture": "東京都"
  },
  {
    "formatted_address": "日本、東京都渋谷区",
    "name": "渋谷区",
    "place_id": "ChIJ0Qgx67KMGGARd2ZbObLZHPE",
    "geometry": {
      "location": {
        "lat": 35.6619707,
        "lng": 139.703795
      }
    },
    "prefecture": "東京都"
  },
  {
    "formatted_address": "日本、東京都品川区",
    "name": "品川区",
    "place_id": "ChIJ7X5wLWKKGGARRTg0Mxu7RH0",
    "geometry": {
      "location": {
        "lat": 35.6091973,
        "lng": 139.7303364
      }
    },
    "prefecture": "東京都"
  },
  {
    "formatted_address": "日本、〒170-0002 東京都豊島区巣鴨",
    "name": "巣鴨",
    "place_id": "ChIJJ6iTfZuNGGAR6Wv0GMjoCmk",
    "geometry": {
      "location": {
        "lat": 35.7382119,
        "lng": 139.7332697
      }
    },
    "prefecture": "東京都"
  },
  {
    "formatted_address": "日本、東京都中央区 日本橋",
    "name": "日本橋",
    "place_id": "ChIJ62jja1aJGGARO1vV6oFC8Mc",
    "geometry": {
      "location": {
        "lat": 35.6840524,
        "lng": 139.7745102
      }
    },
    "prefecture": "東京都"
  },
  {
    "formatted_address": "日本、東京都八王子市",
    "name": "八王子市",
    "place_id": "ChIJN_Qpt7keGWARYhxOnVQO2Cc",
    "geometry": {
      "location": {
        "lat": 35.6664381,
        "lng": 139.3160068
      }
    },
    "prefecture": "東京都"
  },
  {
    "formatted_address": "日本、神奈川県厚木市",
    "name": "厚木市",
    "place_id": "ChIJgcBb0t8AGWARYI4jLKg_PH4",
    "geometry": {
      "location": {
        "lat": 35.44309399999999,
        "lng": 139.3625403
      }
    },
    "prefecture": "神奈川県"
  },
  {
    "formatted_address": "日本、神奈川県小田原市",
    "name": "小田原市",
    "place_id": "ChIJz9Gok1ikGWARVY5_s-sk9KI",
    "geometry": {
      "location": {
        "lat": 35.2648307,
        "lng": 139.1523086
      }
    },
    "prefecture": "神奈川県"
  },
  {
    "formatted_address": "日本、神奈川県相模原市",
    "name": "相模原市",
    "place_id": "ChIJ0Rg03D8bGWARA77Ah2GxZf4",
    "geometry": {
      "location": {
        "lat": 35.5712568,
        "lng": 139.373427
      }
    },
    "prefecture": "神奈川県"
  },
  {
    "formatted_address": "日本、神奈川県横須賀市",
    "name": "横須賀市",
    "place_id": "ChIJV56GCpc_GGARP2fZpDHiIFI",
    "geometry": {
      "location": {
        "lat": 35.281498,
        "lng": 139.6721655
      }
    },
    "prefecture": "神奈川県"
  },
  {
    "formatted_address": "日本、神奈川県横浜市",
    "name": "横浜市",
    "place_id": "ChIJCWW2u-xbGGARAFQoYPaDlgY",
    "geometry": {
      "location": {
        "lat": 35.4436739,
        "lng": 139.6379639
      }
    },
    "prefecture": "神奈川県"
  },
  {
    "formatted_address": "日本、神奈川県川崎市",
    "name": "川崎市",
    "place_id": "ChIJV1C9AXtfGGARy9PPyhfzyYg",
    "geometry": {
      "location": {
        "lat": 35.5308325,
        "lng": 139.7029125
      }
    },
    "prefecture": "神奈川県"
  },
  {
    "formatted_address": "日本、新潟県村上市",
    "name": "村上市",
    "place_id": "ChIJFzoHud13i18RYzzckT--Mk4",
    "geometry": {
      "location": {
        "lat": 38.2240045,
        "lng": 139.480171
      }
    },
    "prefecture": "新潟県"
  },
  {
    "formatted_address": "日本、新潟県",
    "name": "新潟県",
    "place_id": "ChIJATtK2PaFjF8RSPPdfITZi7Q",
    "geometry": {
      "location": {
        "lat": 37.5178386,
        "lng": 138.9269794
      }
    },
    "prefecture": "新潟県"
  },
  {
    "formatted_address": "日本、新潟県長岡市",
    "name": "長岡市",
    "place_id": "ChIJLTUCVXoH9V8R7_cio0uDPFE",
    "geometry": {
      "location": {
        "lat": 37.4465187,
        "lng": 138.8513499
      }
    },
    "prefecture": "新潟県"
  },
  {
    "formatted_address": "日本、新潟県上越市",
    "name": "上越市",
    "place_id": "ChIJlaktuxJ29l8RdcaK8-nkf08",
    "geometry": {
      "location": {
        "lat": 37.1478952,
        "lng": 138.236135
      }
    },
    "prefecture": "新潟県"
  },
  {
    "formatted_address": "日本、新潟県糸魚川市",
    "name": "糸魚川市",
    "place_id": "ChIJdx1OolVE9l8RUR7gX6PMjLc",
    "geometry": {
      "location": {
        "lat": 37.0390497,
        "lng": 137.862814
      }
    },
    "prefecture": "新潟県"
  },
  {
    "formatted_address": "日本、新潟県南魚沼市",
    "name": "南魚沼市",
    "place_id": "ChIJ_f-Ga9P19V8RTUE-bk6try4",
    "geometry": {
      "location": {
        "lat": 37.0654976,
        "lng": 138.8760377
      }
    },
    "prefecture": "新潟県"
  },
  {
    "formatted_address": "日本、新潟県三条市",
    "name": "三条市",
    "place_id": "ChIJhwnNyfoa9V8RSQEx3YkzuZQ",
    "geometry": {
      "location": {
        "lat": 37.6365293,
        "lng": 138.9616061
      }
    },
    "prefecture": "新潟県"
  },
  {
    "formatted_address": "日本、新潟県十日町市",
    "name": "十日町市",
    "place_id": "ChIJIfoLMtb69V8R3t74pukHv88",
    "geometry": {
      "location": {
        "lat": 37.1282799,
        "lng": 138.7553633
      }
    },
    "prefecture": "新潟県"
  },
  {
    "formatted_address": "日本、富山県魚津市",
    "name": "魚津市",
    "place_id": "ChIJMTTed9K7918RcOmmaAjvlzk",
    "geometry": {
      "location": {
        "lat": 36.8273758,
        "lng": 137.4090751
      }
    },
    "prefecture": "富山県"
  },
  {
    "formatted_address": "日本、富山県",
    "name": "富山県",
    "place_id": "ChIJSca2CRSS918Rc1GBWMBBk3w",
    "geometry": {
      "location": {
        "lat": 36.6958266,
        "lng": 137.2137071
      }
    },
    "prefecture": "富山県"
  },
  {
    "formatted_address": "日本、富山県高岡市",
    "name": "高岡市",
    "place_id": "ChIJo8Uv4X54918RLvuB4w9D-jY",
    "geometry": {
      "location": {
        "lat": 36.7541117,
        "lng": 137.0257637
      }
    },
    "prefecture": "富山県"
  },
  {
    "formatted_address": "日本、富山県砺波市",
    "name": "砺波市",
    "place_id": "ChIJ66lslhwo-F8RE8mnHGOsOxQ",
    "geometry": {
      "location": {
        "lat": 36.6474737,
        "lng": 136.9622228
      }
    },
    "prefecture": "富山県"
  },
  {
    "formatted_address": "日本、石川県小松市",
    "name": "小松市",
    "place_id": "ChIJa88uQDxf-F8REwYxn2EnUFQ",
    "geometry": {
      "location": {
        "lat": 36.4084209,
        "lng": 136.4458532
      }
    },
    "prefecture": "石川県"
  },
  {
    "formatted_address": "日本、石川県金沢市",
    "name": "金沢市",
    "place_id": "ChIJw2aFRlU2-F8RFWLeb8RV8Y0",
    "geometry": {
      "location": {
        "lat": 36.5610309,
        "lng": 136.6566474
      }
    },
    "prefecture": "石川県"
  },
  {
    "formatted_address": "日本、石川県七尾市",
    "name": "七尾市",
    "place_id": "ChIJpV5hMZ08918RQbValX-Wf_M",
    "geometry": {
      "location": {
        "lat": 37.0428971,
        "lng": 136.9674026
      }
    },
    "prefecture": "石川県"
  },
  {
    "formatted_address": "日本、石川県輪島市",
    "name": "輪島市",
    "place_id": "ChIJRVqGdSg58V8RslKCeDDWO9Q",
    "geometry": {
      "location": {
        "lat": 37.3904768,
        "lng": 136.8992582
      }
    },
    "prefecture": "石川県"
  },
  {
    "formatted_address": "日本、福井県",
    "name": "福井県",
    "place_id": "ChIJEb6scKhV_18RYA7nHjFfIQo",
    "geometry": {
      "location": {
        "lat": 35.896227,
        "lng": 136.2111579
      }
    },
    "prefecture": "福井県"
  },
  {
    "formatted_address": "日本、福井県敦賀市",
    "name": "敦賀市",
    "place_id": "ChIJqd9LVMP6AWARL5rV3Zc1eM8",
    "geometry": {
      "location": {
        "lat": 35.6459465,
        "lng": 136.0556972
      }
    },
    "prefecture": "福井県"
  },
  {
    "formatted_address": "日本、山梨県大月市",
    "name": "大月市",
    "place_id": "ChIJ9ZatL_REGWARnqPtyS618IE",
    "geometry": {
      "location": {
        "lat": 35.6104591,
        "lng": 138.940185
      }
    },
    "prefecture": "山梨県"
  },
  {
    "formatted_address": "日本、山梨県甲府市",
    "name": "甲府市",
    "place_id": "ChIJqVF4l1D4G2ARCXPKVRfBdsI",
    "geometry": {
      "location": {
        "lat": 35.662133,
        "lng": 138.5683001
      }
    },
    "prefecture": "山梨県"
  },
  {
    "formatted_address": "日本、山梨県韮崎市",
    "name": "韮崎市",
    "place_id": "ChIJWcQnYK8MHGARqPKO6_AzkrY",
    "geometry": {
      "location": {
        "lat": 35.7087847,
        "lng": 138.4463872
      }
    },
    "prefecture": "山梨県"
  },
  {
    "formatted_address": "日本、山梨県富士吉田市",
    "name": "富士吉田市",
    "place_id": "ChIJTVQcfkxhGWARhfNuLyg8tWg",
    "geometry": {
      "location": {
        "lat": 35.4879873,
        "lng": 138.8071879
      }
    },
    "prefecture": "山梨県"
  },
  {
    "formatted_address": "日本、山梨県南巨摩郡身延町",
    "name": "身延町",
    "place_id": "ChIJdY1Riy3qG2AR0I9tvRH8GT8",
    "geometry": {
      "location": {
        "lat": 35.4674793,
        "lng": 138.4425451
      }
    },
    "prefecture": "山梨県"
  },
  {
    "formatted_address": "日本、長野県飯田市",
    "name": "飯田市",
    "place_id": "ChIJNeX_xjSdHGARxqitnTSMRU4",
    "geometry": {
      "location": {
        "lat": 35.51487,
        "lng": 137.8217006
      }
    },
    "prefecture": "長野県"
  },
  {
    "formatted_address": "日本、長野県上田市",
    "name": "上田市",
    "place_id": "ChIJsaSJhsy8HWARTFv1slYL1uE",
    "geometry": {
      "location": {
        "lat": 36.4019126,
        "lng": 138.249075
      }
    },
    "prefecture": "長野県"
  },
  {
    "formatted_address": "日本、長野県小諸市",
    "name": "小諸市",
    "place_id": "ChIJCbaWP1fIHWARK6ZkTmPAsGE",
    "geometry": {
      "location": {
        "lat": 36.3271412,
        "lng": 138.4258254
      }
    },
    "prefecture": "長野県"
  },
  {
    "formatted_address": "日本、長野県塩尻市",
    "name": "塩尻市",
    "place_id": "ChIJ5wtQdrXiHGARNN7zHA-e9e8",
    "geometry": {
      "location": {
        "lat": 36.1148135,
        "lng": 137.9532361
      }
    },
    "prefecture": "長野県"
  },
  {
    "formatted_address": "日本、長野県諏訪市",
    "name": "諏訪市",
    "place_id": "ChIJ30EFZMxVHGARRiDmvSJjp-0",
    "geometry": {
      "location": {
        "lat": 36.0391525,
        "lng": 138.1140545
      }
    },
    "prefecture": "長野県"
  },
  {
    "formatted_address": "日本、長野県",
    "name": "長野県",
    "place_id": "ChIJa4zJGCMBHWARlAu_BE8rXAI",
    "geometry": {
      "location": {
        "lat": 36.1543941,
        "lng": 137.9218204
      }
    },
    "prefecture": "長野県"
  },
  {
    "formatted_address": "日本、長野県松本市",
    "name": "松本市",
    "place_id": "ChIJx2hD6AAUHWAR3c0QMjZtjcs",
    "geometry": {
      "location": {
        "lat": 36.2380434,
        "lng": 137.9719897
      }
    },
    "prefecture": "長野県"
  },
  {
    "formatted_address": "日本、岐阜県",
    "name": "岐阜県",
    "place_id": "ChIJi8OICvLxAmARZ9bM7q0UJ68",
    "geometry": {
      "location": {
        "lat": 35.7437491,
        "lng": 136.9805103
      }
    },
    "prefecture": "岐阜県"
  },
  {
    "formatted_address": "日本、岐阜県高山市",
    "name": "高山市",
    "place_id": "ChIJScNPoUKjAmAR3OO48IT78tQ",
    "geometry": {
      "location": {
        "lat": 36.1461317,
        "lng": 137.252159
      }
    },
    "prefecture": "岐阜県"
  },
  {
    "formatted_address": "日本、岐阜県大垣市",
    "name": "大垣市",
    "place_id": "ChIJnelsbRW2A2AR7VzBT1UIZ6c",
    "geometry": {
      "location": {
        "lat": 35.3593013,
        "lng": 136.6134417
      }
    },
    "prefecture": "岐阜県"
  },
  {
    "formatted_address": "日本、岐阜県美濃加茂市",
    "name": "美濃加茂市",
    "place_id": "ChIJgxQuHmEaA2ARZCFcch1N0fI",
    "geometry": {
      "location": {
        "lat": 35.4402296,
        "lng": 137.0156528
      }
    },
    "prefecture": "岐阜県"
  },
  {
    "formatted_address": "日本、岐阜県多治見市",
    "name": "多治見市",
    "place_id": "ChIJrQ2X519qA2ARJlle7zz6MQk",
    "geometry": {
      "location": {
        "lat": 35.3327697,
        "lng": 137.1321388
      }
    },
    "prefecture": "岐阜県"
  },
  {
    "formatted_address": "日本、静岡県",
    "name": "静岡県",
    "place_id": "ChIJL8OwjM62G2ARVRZv3-tm-vw",
    "geometry": {
      "location": {
        "lat": 35.0929397,
        "lng": 138.3190276
      }
    },
    "prefecture": "静岡県"
  },
  {
    "formatted_address": "日本、静岡県浜松市",
    "name": "浜松市",
    "place_id": "ChIJkZcH5S0WG2ARI_bt4jmbpGc",
    "geometry": {
      "location": {
        "lat": 34.7102752,
        "lng": 137.7274159
      }
    },
    "prefecture": "静岡県"
  },
  {
    "formatted_address": "日本、静岡県沼津市",
    "name": "沼津市",
    "place_id": "ChIJd8qCk3ePGWARj7rWaLvxuAk",
    "geometry": {
      "location": {
        "lat": 35.0956068,
        "lng": 138.8635399
      }
    },
    "prefecture": "静岡県"
  },
  {
    "formatted_address": "日本、静岡県御前崎市",
    "name": "御前崎市",
    "place_id": "ChIJn3Z5pLNgGmARb8Yc2rXpLgA",
    "geometry": {
      "location": {
        "lat": 34.6379987,
        "lng": 138.1280864
      }
    },
    "prefecture": "静岡県"
  },
  {
    "formatted_address": "日本、愛知県名古屋市",
    "name": "名古屋市",
    "place_id": "ChIJZSN7EJ5wA2ARUrPO6NQilio",
    "geometry": {
      "location": {
        "lat": 35.18145060000001,
        "lng": 136.9065571
      }
    },
    "prefecture": "愛知県"
  },
  {
    "formatted_address": "日本、愛知県豊橋市",
    "name": "豊橋市",
    "place_id": "ChIJvzrKelzSBGARxtl_0Fe1ecw",
    "geometry": {
      "location": {
        "lat": 34.7688528,
        "lng": 137.3916837
      }
    },
    "prefecture": "愛知県"
  },
  {
    "formatted_address": "日本、愛知県豊田市",
    "name": "豊田市",
    "place_id": "ChIJ4yH4cmeoBGARiArICjlQxoQ",
    "geometry": {
      "location": {
        "lat": 35.0825559,
        "lng": 137.1561276
      }
    },
    "prefecture": "愛知県"
  },
  {
    "formatted_address": "日本、三重県津市",
    "name": "津市",
    "place_id": "ChIJW5-GzYEPBGAReKwxhFv9euQ",
    "geometry": {
      "location": {
        "lat": 34.7186389,
        "lng": 136.5052256
      }
    },
    "prefecture": "三重県"
  },
  {
    "formatted_address": "日本、三重県四日市市",
    "name": "四日市市",
    "place_id": "ChIJpbJSMYWSA2ARMTm4fboG_94",
    "geometry": {
      "location": {
        "lat": 34.9651064,
        "lng": 136.6244121
      }
    },
    "prefecture": "三重県"
  },
  {
    "formatted_address": "日本、三重県伊勢市",
    "name": "伊勢市",
    "place_id": "ChIJxW5CEJlQBGARGRH-87cfV_o",
    "geometry": {
      "location": {
        "lat": 34.4874863,
        "lng": 136.7092639
      }
    },
    "prefecture": "三重県"
  },
  {
    "formatted_address": "日本、三重県尾鷲市",
    "name": "尾鷲市",
    "place_id": "ChIJ12A--kx_BmARBWgrtll51MA",
    "geometry": {
      "location": {
        "lat": 34.0707921,
        "lng": 136.1909177
      }
    },
    "prefecture": "三重県"
  },
  {
    "formatted_address": "日本、三重県伊賀市",
    "name": "伊賀市",
    "place_id": "ChIJGTWPCMZVAWARJdd6wGL2pOk",
    "geometry": {
      "location": {
        "lat": 34.7685703,
        "lng": 136.1298712
      }
    },
    "prefecture": "三重県"
  },
  {
    "formatted_address": "日本、三重県松阪市",
    "name": "松阪市",
    "place_id": "ChIJnd41jEcYBGARHd8TeHmvF5U",
    "geometry": {
      "location": {
        "lat": 34.5779758,
        "lng": 136.5276154
      }
    },
    "prefecture": "三重県"
  },
  {
    "formatted_address": "日本、滋賀県大津市",
    "name": "大津市",
    "place_id": "ChIJLQyx4ex0AWARRoaQadW7zIs",
    "geometry": {
      "location": {
        "lat": 35.0178371,
        "lng": 135.8552084
      }
    },
    "prefecture": "滋賀県"
  },
  {
    "formatted_address": "日本、京都府福知山市",
    "name": "福知山市",
    "place_id": "ChIJf1faz4QCAGAR1PB3sOGA6iU",
    "geometry": {
      "location": {
        "lat": 35.2966988,
        "lng": 135.1265486
      }
    },
    "prefecture": "京都府"
  },
  {
    "formatted_address": "日本、京都府舞鶴市",
    "name": "舞鶴市",
    "place_id": "ChIJi-IYokWF_18RJ3ukgbhwLfw",
    "geometry": {
      "location": {
        "lat": 35.4747759,
        "lng": 135.3861501
      }
    },
    "prefecture": "京都府"
  },
  {
    "formatted_address": "日本、京都府京都市",
    "name": "京都市",
    "place_id": "ChIJ8cM8zdaoAWARPR27azYdlsA",
    "geometry": {
      "location": {
        "lat": 35.011564,
        "lng": 135.7681489
      }
    },
    "prefecture": "京都府"
  },
  {
    "formatted_address": "日本、〒600-8357 京都府京都市下京区柿本町５７９",
    "name": "五条堀川ビル",
    "place_id": "ChIJhdLuCiAGAWARC_c97ldaRxk",
    "geometry": {
      "location": {
        "lat": 34.9958529,
        "lng": 135.7518842
      }
    },
    "prefecture": "京都府"
  },
  {
    "formatted_address": "日本、大阪府",
    "name": "大阪府",
    "place_id": "ChIJ13DMKmvoAGARbVkfgUj_maM",
    "geometry": {
      "location": {
        "lat": 34.6413315,
        "lng": 135.5629394
      }
    },
    "prefecture": "大阪府"
  },
  {
    "formatted_address": "日本、〒530-0001 大阪府大阪市北区梅田１丁目１",
    "name": "梅田新道",
    "place_id": "ChIJhZCAW-zmAGAREQych5z9UWw",
    "geometry": {
      "location": {
        "lat": 34.69885,
        "lng": 135.50015
      }
    },
    "prefecture": "大阪府"
  },
  {
    "formatted_address": "日本、〒542-0076 大阪府大阪市中央区難波",
    "name": "難波",
    "place_id": "ChIJOXPJyWznAGARahb0KWFRjlM",
    "geometry": {
      "location": {
        "lat": 34.6657531,
        "lng": 135.5010362
      }
    },
    "prefecture": "大阪府"
  },
  {
    "formatted_address": "日本、〒552-0021 大阪府大阪市港区築港３丁目５−９",
    "name": "大阪港駅",
    "place_id": "ChIJ4e_0coroAGARRJIjAJoLGCM",
    "geometry": {
      "location": {
        "lat": 34.653927,
        "lng": 135.4344189
      }
    },
    "prefecture": "大阪府"
  },
  {
    "formatted_address": "日本、〒559-0034 大阪府大阪市住之江区南港北",
    "name": "南港北",
    "place_id": "ChIJT7UwK1PoAGARbWc8UdK0gEA",
    "geometry": {
      "location": {
        "lat": 34.6398713,
        "lng": 135.4098039
      }
    },
    "prefecture": "大阪府"
  },
  {
    "formatted_address": "日本、〒537-0001 大阪府大阪市東成区深江北２丁目１",
    "name": "深江橋駅",
    "place_id": "ChIJ-3yKDITgAGARXiiKPVg6Ttg",
    "geometry": {
      "location": {
        "lat": 34.679015,
        "lng": 135.5580041
      }
    },
    "prefecture": "大阪府"
  },
  {
    "formatted_address": "日本、大阪府堺市",
    "name": "堺市",
    "place_id": "ChIJW2vFrmfaAGARIKSY9p7Ut74",
    "geometry": {
      "location": {
        "lat": 34.5733261,
        "lng": 135.4831176
      }
    },
    "prefecture": "大阪府"
  },
  {
    "formatted_address": "日本、兵庫県姫路市",
    "name": "姫路市",
    "place_id": "ChIJ0djrGS3iVDURaQtrcU2Tq9s",
    "geometry": {
      "location": {
        "lat": 34.8154176,
        "lng": 134.6855509
      }
    },
    "prefecture": "兵庫県"
  },
  {
    "formatted_address": "日本、兵庫県豊岡市",
    "name": "豊岡市",
    "place_id": "ChIJhY1k0pHD_18RChPo8m-O1bs",
    "geometry": {
      "location": {
        "lat": 35.544556,
        "lng": 134.8202406
      }
    },
    "prefecture": "兵庫県"
  },
  {
    "formatted_address": "日本、兵庫県洲本市",
    "name": "洲本市",
    "place_id": "ChIJAcUnaVilVDUR-p7RiGYgQa4",
    "geometry": {
      "location": {
        "lat": 34.34288830000001,
        "lng": 134.895295
      }
    },
    "prefecture": "兵庫県"
  },
  {
    "formatted_address": "日本、兵庫県神戸市中央区三宮町３丁目９ 三宮",
    "name": "三宮",
    "place_id": "ChIJs4NoJ_2OAGARtqDlkpcTrIs",
    "geometry": {
      "location": {
        "lat": 34.6931949,
        "lng": 135.194472
      }
    },
    "prefecture": "兵庫県"
  },
  {
    "formatted_address": "日本、兵庫県神戸市",
    "name": "神戸市",
    "place_id": "ChIJ2YntKoF9AGAR9HD2wgZhEsc",
    "geometry": {
      "location": {
        "lat": 34.6900806,
        "lng": 135.1956311
      }
    },
    "prefecture": "兵庫県"
  },
  {
    "formatted_address": "日本、奈良県奈良市",
    "name": "奈良市",
    "place_id": "ChIJwQyneMU3AWARIiZJubDZ_ko",
    "geometry": {
      "location": {
        "lat": 34.685109,
        "lng": 135.8048019
      }
    },
    "prefecture": "奈良県"
  },
  {
    "formatted_address": "日本、奈良県大和郡山市",
    "name": "大和郡山市",
    "place_id": "ChIJ2X2NH546AWARo-8Eh4mImoo",
    "geometry": {
      "location": {
        "lat": 34.6488378,
        "lng": 135.7825031
      }
    },
    "prefecture": "奈良県"
  },
  {
    "formatted_address": "日本、奈良県天理市",
    "name": "天理市",
    "place_id": "ChIJ07KlvNM1AWARlije-_BTTGw",
    "geometry": {
      "location": {
        "lat": 34.5966597,
        "lng": 135.8373605
      }
    },
    "prefecture": "奈良県"
  },
  {
    "formatted_address": "日本、奈良県橿原市",
    "name": "橿原市",
    "place_id": "ChIJ96Z4iykzAWARCTdoI6VOOjM",
    "geometry": {
      "location": {
        "lat": 34.50945,
        "lng": 135.7925947
      }
    },
    "prefecture": "奈良県"
  },
  {
    "formatted_address": "日本、奈良県大和高田市",
    "name": "大和高田市",
    "place_id": "ChIJQcJ7J3ctAWARQ-Qi5Buw2xA",
    "geometry": {
      "location": {
        "lat": 34.51508159999999,
        "lng": 135.7363946
      }
    },
    "prefecture": "奈良県"
  },
  {
    "formatted_address": "日本、奈良県五條市",
    "name": "五條市",
    "place_id": "ChIJ40gSsQTDBmARu3yzgbbIwEg",
    "geometry": {
      "location": {
        "lat": 34.3520322,
        "lng": 135.6935169
      }
    },
    "prefecture": "奈良県"
  },
  {
    "formatted_address": "日本、和歌山県",
    "name": "和歌山県",
    "place_id": "ChIJ1wKhtPIEB2ARnU_gb_EzSNQ",
    "geometry": {
      "location": {
        "lat": 33.9480914,
        "lng": 135.3745358
      }
    },
    "prefecture": "和歌山県"
  },
  {
    "formatted_address": "日本、和歌山県田辺市",
    "name": "田辺市",
    "place_id": "ChIJt5g8uDcAB2ARlyu1nmetnmg",
    "geometry": {
      "location": {
        "lat": 33.7280054,
        "lng": 135.3777299
      }
    },
    "prefecture": "和歌山県"
  },
  {
    "formatted_address": "日本、和歌山県新宮市",
    "name": "新宮市",
    "place_id": "ChIJ5yc7z99CBmARra4NLMDkZII",
    "geometry": {
      "location": {
        "lat": 33.7241203,
        "lng": 135.9924819
      }
    },
    "prefecture": "和歌山県"
  },
  {
    "formatted_address": "日本、鳥取県米子市",
    "name": "米子市",
    "place_id": "ChIJkx5-McH3VjURHS12V7ivMww",
    "geometry": {
      "location": {
        "lat": 35.4281164,
        "lng": 133.3309966
      }
    },
    "prefecture": "鳥取県"
  },
  {
    "formatted_address": "日本、鳥取県倉吉市",
    "name": "倉吉市",
    "place_id": "ChIJ69UgxZh5VjURu4RXXBIjNb4",
    "geometry": {
      "location": {
        "lat": 35.4304213,
        "lng": 133.8260633
      }
    },
    "prefecture": "鳥取県"
  },
  {
    "formatted_address": "日本、鳥取県",
    "name": "鳥取県",
    "place_id": "ChIJB0-MsELXVTUR7pLgQAxBLzs",
    "geometry": {
      "location": {
        "lat": 35.3573161,
        "lng": 133.4066618
      }
    },
    "prefecture": "鳥取県"
  },
  {
    "formatted_address": "日本、島根県出雲市",
    "name": "出雲市",
    "place_id": "ChIJVxq2lFxEVzURLAlvLF-gm2s",
    "geometry": {
      "location": {
        "lat": 35.3670442,
        "lng": 132.7546943
      }
    },
    "prefecture": "島根県"
  },
  {
    "formatted_address": "日本、島根県益田市",
    "name": "益田市",
    "place_id": "ChIJfxohZR_gWjUR249xhcbyyvM",
    "geometry": {
      "location": {
        "lat": 34.674846,
        "lng": 131.842886
      }
    },
    "prefecture": "島根県"
  },
  {
    "formatted_address": "日本、島根県大田市",
    "name": "大田市",
    "place_id": "ChIJqUvqbkIGWjURfrpLGZJbP4w",
    "geometry": {
      "location": {
        "lat": 35.1920811,
        "lng": 132.4992838
      }
    },
    "prefecture": "島根県"
  },
  {
    "formatted_address": "日本、島根県松江市",
    "name": "松江市",
    "place_id": "ChIJJf1X6YgDVzURnMvaG_KNin8",
    "geometry": {
      "location": {
        "lat": 35.4681908,
        "lng": 133.0484055
      }
    },
    "prefecture": "島根県"
  },
  {
    "formatted_address": "日本、島根県浜田市",
    "name": "浜田市",
    "place_id": "ChIJUahEjqRYWjUR7K5zuqBPt6M",
    "geometry": {
      "location": {
        "lat": 34.8993937,
        "lng": 132.0802638
      }
    },
    "prefecture": "島根県"
  },
  {
    "formatted_address": "日本、岡山県津山市",
    "name": "津山市",
    "place_id": "ChIJn1ldHxYzVDURyGBkY8IBFIQ",
    "geometry": {
      "location": {
        "lat": 35.0691643,
        "lng": 134.0045802
      }
    },
    "prefecture": "岡山県"
  },
  {
    "formatted_address": "日本、岡山県新見市",
    "name": "新見市",
    "place_id": "ChIJVXnUj_3GVjURSPf2J0zwILo",
    "geometry": {
      "location": {
        "lat": 34.9770399,
        "lng": 133.4703448
      }
    },
    "prefecture": "岡山県"
  },
  {
    "formatted_address": "日本、岡山県",
    "name": "岡山県",
    "place_id": "ChIJh5W24jhmVDURU20vGB0GIdI",
    "geometry": {
      "location": {
        "lat": 34.8963407,
        "lng": 133.6375314
      }
    },
    "prefecture": "岡山県"
  },
  {
    "formatted_address": "日本、広島県",
    "name": "広島県",
    "place_id": "ChIJa_O3GdGJUDURv90VFtIkjqU",
    "geometry": {
      "location": {
        "lat": 34.8823408,
        "lng": 133.0194897
      }
    },
    "prefecture": "広島県"
  },
  {
    "formatted_address": "日本、広島県福山市",
    "name": "福山市",
    "place_id": "ChIJM0QQmrwQUTURtwFn4wbERQk",
    "geometry": {
      "location": {
        "lat": 34.4859845,
        "lng": 133.3624239
      }
    },
    "prefecture": "広島県"
  },
  {
    "formatted_address": "日本、広島県三次市",
    "name": "三次市",
    "place_id": "ChIJW_lPAgPAUDURMWLytMo_FW4",
    "geometry": {
      "location": {
        "lat": 34.80559,
        "lng": 132.8518798
      }
    },
    "prefecture": "広島県"
  },
  {
    "formatted_address": "日本、山口県",
    "name": "山口県",
    "place_id": "ChIJ_Y9adhnHRDURcOJUU8K8DEk",
    "geometry": {
      "location": {
        "lat": 34.2796769,
        "lng": 131.5212742
      }
    },
    "prefecture": "山口県"
  },
  {
    "formatted_address": "日本、山口県宇部市",
    "name": "宇部市",
    "place_id": "ChIJPZ0jvSqARDURgvQuDknI1qE",
    "geometry": {
      "location": {
        "lat": 33.9515554,
        "lng": 131.2468161
      }
    },
    "prefecture": "山口県"
  },
  {
    "formatted_address": "日本、山口県周南市",
    "name": "周南市",
    "place_id": "ChIJh8mdA-XbRDURoD0yhnbtcmc",
    "geometry": {
      "location": {
        "lat": 34.0550099,
        "lng": 131.8061149
      }
    },
    "prefecture": "山口県"
  },
  {
    "formatted_address": "日本、山口県岩国市",
    "name": "岩国市",
    "place_id": "ChIJwfpYc1gzRTURTUR_ietS7vE",
    "geometry": {
      "location": {
        "lat": 34.1667451,
        "lng": 132.2191641
      }
    },
    "prefecture": "山口県"
  },
  {
    "formatted_address": "日本、山口県萩市",
    "name": "萩市",
    "place_id": "ChIJB30JXXatRDUR1oOgtH18Now",
    "geometry": {
      "location": {
        "lat": 34.4081121,
        "lng": 131.3990499
      }
    },
    "prefecture": "山口県"
  },
  {
    "formatted_address": "日本、山口県下関市",
    "name": "下関市",
    "place_id": "ChIJp19vVVt1QzURcwp5jknBAXE",
    "geometry": {
      "location": {
        "lat": 33.95752969999999,
        "lng": 130.9411759
      }
    },
    "prefecture": "山口県"
  },
  {
    "formatted_address": "日本、徳島県",
    "name": "徳島県",
    "place_id": "ChIJszfXrltNUjURDDHPZPlj3f0",
    "geometry": {
      "location": {
        "lat": 33.9419655,
        "lng": 134.3236557
      }
    },
    "prefecture": "徳島県"
  },
  {
    "formatted_address": "日本、徳島県三好市",
    "name": "三好市",
    "place_id": "ChIJj38fyzovUjURMcNvV1FL7-8",
    "geometry": {
      "location": {
        "lat": 34.0260234,
        "lng": 133.8072458
      }
    },
    "prefecture": "徳島県"
  },
  {
    "formatted_address": "日本、徳島県美馬郡つるぎ町",
    "name": "つるぎ町",
    "place_id": "ChIJkcF2zvA0UjURg8WTJ7_svQM",
    "geometry": {
      "location": {
        "lat": 34.0373054,
        "lng": 134.0640817
      }
    },
    "prefecture": "徳島県"
  },
  {
    "formatted_address": "日本、香川県高松市",
    "name": "高松市",
    "place_id": "ChIJ30eNVMXBUzURG_cenNQp9HI",
    "geometry": {
      "location": {
        "lat": 34.342542,
        "lng": 134.0465405
      }
    },
    "prefecture": "香川県"
  },
  {
    "formatted_address": "日本、愛媛県松山市",
    "name": "松山市",
    "place_id": "ChIJnThD3TLlTzURpzJmJKYS83E",
    "geometry": {
      "location": {
        "lat": 33.8393515,
        "lng": 132.7653057
      }
    },
    "prefecture": "愛媛県"
  },
  {
    "formatted_address": "日本、愛媛県今治市",
    "name": "今治市",
    "place_id": "ChIJhz4P1Iw5UDURv4XnBx1nGCo",
    "geometry": {
      "location": {
        "lat": 34.0662024,
        "lng": 132.9977906
      }
    },
    "prefecture": "愛媛県"
  },
  {
    "formatted_address": "日本、愛媛県宇和島市",
    "name": "宇和島市",
    "place_id": "ChIJxS1LOoTzRTURrO7L9BnbCxU",
    "geometry": {
      "location": {
        "lat": 33.2235707,
        "lng": 132.560384
      }
    },
    "prefecture": "愛媛県"
  },
  {
    "formatted_address": "日本、愛媛県西条市",
    "name": "西条市",
    "place_id": "ChIJ7XopBLYrUDURdIN8AMLzI5E",
    "geometry": {
      "location": {
        "lat": 33.919495,
        "lng": 133.1811444
      }
    },
    "prefecture": "愛媛県"
  },
  {
    "formatted_address": "日本、愛媛県大洲市",
    "name": "大洲市",
    "place_id": "ChIJnb65G-GFTzUR7HRxp1IM8YU",
    "geometry": {
      "location": {
        "lat": 33.5061905,
        "lng": 132.5446184
      }
    },
    "prefecture": "愛媛県"
  },
  {
    "formatted_address": "日本、高知県",
    "name": "高知県",
    "place_id": "ChIJa2Hq0TSpSDURow2-nqQtVKA",
    "geometry": {
      "location": {
        "lat": 33.5481246,
        "lng": 133.2521507
      }
    },
    "prefecture": "高知県"
  },
  {
    "formatted_address": "日本、高知県室戸市",
    "name": "室戸市",
    "place_id": "ChIJVam2cmKKTTURTVwNt-QACYc",
    "geometry": {
      "location": {
        "lat": 33.2899726,
        "lng": 134.152103
      }
    },
    "prefecture": "高知県"
  },
  {
    "formatted_address": "日本、高知県四万十市",
    "name": "四万十市",
    "place_id": "ChIJs5XRzZJqTzURBY-Owc_TC1w",
    "geometry": {
      "location": {
        "lat": 32.9913865,
        "lng": 132.9337854
      }
    },
    "prefecture": "高知県"
  },
  {
    "formatted_address": "日本、高知県須崎市",
    "name": "須崎市",
    "place_id": "ChIJP1cYXe1ITjUR5mDaXRWa-RA",
    "geometry": {
      "location": {
        "lat": 33.400844,
        "lng": 133.2829397
      }
    },
    "prefecture": "高知県"
  },
  {
    "formatted_address": "日本、〒787-0315 高知県土佐清水市足摺岬",
    "name": "足摺岬",
    "place_id": "ChIJSz-JcokyTzURhmxZX40Njxg",
    "geometry": {
      "location": {
        "lat": 32.733724,
        "lng": 133.0049128
      }
    },
    "prefecture": "高知県"
  },
  {
    "formatted_address": "日本、福岡県福岡市",
    "name": "福岡市",
    "place_id": "ChIJKYSE6aHtQTURg4c5NplyCvY",
    "geometry": {
      "location": {
        "lat": 33.5901838,
        "lng": 130.4016888
      }
    },
    "prefecture": "福岡県"
  },
  {
    "formatted_address": "日本、福岡県久留米市",
    "name": "久留米市",
    "place_id": "ChIJk9hrB4SmQTURhaATncBSVbw",
    "geometry": {
      "location": {
        "lat": 33.3192356,
        "lng": 130.5083557
      }
    },
    "prefecture": "福岡県"
  },
  {
    "formatted_address": "日本、福岡県大牟田市",
    "name": "大牟田市",
    "place_id": "ChIJbfB7E0FOQDURDeYUZl7C_GI",
    "geometry": {
      "location": {
        "lat": 33.0301948,
        "lng": 130.4461388
      }
    },
    "prefecture": "福岡県"
  },
  {
    "formatted_address": "日本、福岡県飯塚市",
    "name": "飯塚市",
    "place_id": "ChIJDY-RZxh_QTUR3w7XJMZ1bQk",
    "geometry": {
      "location": {
        "lat": 33.6465627,
        "lng": 130.6911797
      }
    },
    "prefecture": "福岡県"
  },
  {
    "formatted_address": "日本、福岡県北九州市",
    "name": "北九州市",
    "place_id": "ChIJqW1jSWjHQzUR5zh-KTC5ijg",
    "geometry": {
      "location": {
        "lat": 33.8834976,
        "lng": 130.8751773
      }
    },
    "prefecture": "福岡県"
  },
  {
    "formatted_address": "日本、佐賀県唐津市",
    "name": "唐津市",
    "place_id": "ChIJld_zhvZ4ajUR88P7B_O4EsY",
    "geometry": {
      "location": {
        "lat": 33.4500971,
        "lng": 129.9682676
      }
    },
    "prefecture": "佐賀県"
  },
  {
    "formatted_address": "日本、佐賀県鳥栖市",
    "name": "鳥栖市",
    "place_id": "ChIJI_qv_z6jQTURHQU9n5mrTx0",
    "geometry": {
      "location": {
        "lat": 33.3778796,
        "lng": 130.5062434
      }
    },
    "prefecture": "佐賀県"
  },
  {
    "formatted_address": "日本、佐賀県武雄市",
    "name": "武雄市",
    "place_id": "ChIJ12oyXTgoQDUR4Khi2dGJCYI",
    "geometry": {
      "location": {
        "lat": 33.1941592,
        "lng": 130.0215646
      }
    },
    "prefecture": "佐賀県"
  },
  {
    "formatted_address": "日本、佐賀県",
    "name": "佐賀県",
    "place_id": "ChIJVVXx4qHSQTUR2vEeH2zUCzA",
    "geometry": {
      "location": {
        "lat": 33.3078371,
        "lng": 130.2271243
      }
    },
    "prefecture": "佐賀県"
  },
  {
    "formatted_address": "日本、佐賀県伊万里市",
    "name": "伊万里市",
    "place_id": "ChIJrU2uF9GGajURPNTCly4oH84",
    "geometry": {
      "location": {
        "lat": 33.2650014,
        "lng": 129.8804221
      }
    },
    "prefecture": "佐賀県"
  },
  {
    "formatted_address": "日本、長崎県佐世保市",
    "name": "佐世保市",
    "place_id": "ChIJT0H6gODcajURhFxirfPht7M",
    "geometry": {
      "location": {
        "lat": 33.1804356,
        "lng": 129.7157996
      }
    },
    "prefecture": "長崎県"
  },
  {
    "formatted_address": "日本、長崎県諫早市",
    "name": "諫早市",
    "place_id": "ChIJD_hYzbgcQDURnFdIZKmOHig",
    "geometry": {
      "location": {
        "lat": 32.8434342,
        "lng": 130.0531121
      }
    },
    "prefecture": "長崎県"
  },
  {
    "formatted_address": "日本、長崎県島原市",
    "name": "島原市",
    "place_id": "ChIJb7ZS4L1sQDURMaD9TQA11-8",
    "geometry": {
      "location": {
        "lat": 32.7882308,
        "lng": 130.3708414
      }
    },
    "prefecture": "長崎県"
  },
  {
    "formatted_address": "日本、長崎県大村市",
    "name": "大村市",
    "place_id": "ChIJraZ75pIdQDUR8WlnHzZbuEE",
    "geometry": {
      "location": {
        "lat": 32.9000257,
        "lng": 129.9578634
      }
    },
    "prefecture": "長崎県"
  },
  {
    "formatted_address": "日本、長崎県",
    "name": "長崎県",
    "place_id": "ChIJC46vsRChaTURlUoIqR4qlSQ",
    "geometry": {
      "location": {
        "lat": 33.2488525,
        "lng": 129.6930912
      }
    },
    "prefecture": "長崎県"
  },
  {
    "formatted_address": "日本、熊本県八代市",
    "name": "八代市",
    "place_id": "ChIJDwXDdwiDQDUR3gzjwq0iee8",
    "geometry": {
      "location": {
        "lat": 32.5083376,
        "lng": 130.6018162
      }
    },
    "prefecture": "熊本県"
  },
  {
    "formatted_address": "日本、熊本県人吉市",
    "name": "人吉市",
    "place_id": "ChIJ_S8gsYdxPzURElYtdHlYpM4",
    "geometry": {
      "location": {
        "lat": 32.2167672,
        "lng": 130.739758
      }
    },
    "prefecture": "熊本県"
  },
  {
    "formatted_address": "日本、熊本県水俣市",
    "name": "水俣市",
    "place_id": "ChIJdf1ouDajPzUR3glRW85Xu7w",
    "geometry": {
      "location": {
        "lat": 32.2118618,
        "lng": 130.4087101
      }
    },
    "prefecture": "熊本県"
  },
  {
    "formatted_address": "日本、熊本県天草市",
    "name": "天草市",
    "place_id": "ChIJL8ffMC_oPzUROBKggFK90pg",
    "geometry": {
      "location": {
        "lat": 32.4585255,
        "lng": 130.1934363
      }
    },
    "prefecture": "熊本県"
  },
  {
    "formatted_address": "日本、熊本県宇土市",
    "name": "宇土市",
    "place_id": "ChIJG9WEX0RiQDURGsTFtlrDp70",
    "geometry": {
      "location": {
        "lat": 32.6873631,
        "lng": 130.6589603
      }
    },
    "prefecture": "熊本県"
  },
  {
    "formatted_address": "日本、熊本県",
    "name": "熊本県",
    "place_id": "ChIJpzy0q613QDUR8fFMMDKVF_I",
    "geometry": {
      "location": {
        "lat": 32.8594427,
        "lng": 130.7969149
      }
    },
    "prefecture": "熊本県"
  },
  {
    "formatted_address": "日本、熊本県荒尾市",
    "name": "荒尾市",
    "place_id": "ChIJRZOiLrNaQDURmgOPAwMc-08",
    "geometry": {
      "location": {
        "lat": 32.986737,
        "lng": 130.4330435
      }
    },
    "prefecture": "熊本県"
  },
  {
    "formatted_address": "日本、大分県中津市",
    "name": "中津市",
    "place_id": "ChIJ1Xv9qgtYQTUR1kUz0pHaQng",
    "geometry": {
      "location": {
        "lat": 33.5557659,
        "lng": 131.2009971
      }
    },
    "prefecture": "大分県"
  },
  {
    "formatted_address": "日本、大分県日田市",
    "name": "日田市",
    "place_id": "ChIJCfyvE1YVQTURew3P4XzYpjk",
    "geometry": {
      "location": {
        "lat": 33.3206146,
        "lng": 130.9404064
      }
    },
    "prefecture": "大分県"
  },
  {
    "formatted_address": "日本、大分県佐伯市",
    "name": "佐伯市",
    "place_id": "ChIJ9ehorZTyRjURIITuUy0zd5M",
    "geometry": {
      "location": {
        "lat": 32.959827,
        "lng": 131.9000563
      }
    },
    "prefecture": "大分県"
  },
  {
    "formatted_address": "日本、大分県",
    "name": "大分県",
    "place_id": "ChIJk0fY45VcRDUR4r42cPK3Fz8",
    "geometry": {
      "location": {
        "lat": 33.1589299,
        "lng": 131.3611121
      }
    },
    "prefecture": "大分県"
  },
  {
    "formatted_address": "日本、大分県宇佐市",
    "name": "宇佐市",
    "place_id": "ChIJt7rCQBcBRDURy4_-zrM7LYI",
    "geometry": {
      "location": {
        "lat": 33.5319902,
        "lng": 131.3496285
      }
    },
    "prefecture": "大分県"
  },
  {
    "formatted_address": "日本、大分県別府市",
    "name": "別府市",
    "place_id": "ChIJxySfUBimRjURImdrJRj4yIk",
    "geometry": {
      "location": {
        "lat": 33.2844614,
        "lng": 131.4907093
      }
    },
    "prefecture": "大分県"
  },
  {
    "formatted_address": "日本、宮崎県都城市",
    "name": "都城市",
    "place_id": "ChIJvdwSXiMkPzURJsH-LvYY9bc",
    "geometry": {
      "location": {
        "lat": 31.7195907,
        "lng": 131.061559
      }
    },
    "prefecture": "宮崎県"
  },
  {
    "formatted_address": "日本、宮崎県延岡市",
    "name": "延岡市",
    "place_id": "ChIJv7Vo3SAeRzUReEar9ERfp1Q",
    "geometry": {
      "location": {
        "lat": 32.5823201,
        "lng": 131.6651407
      }
    },
    "prefecture": "宮崎県"
  },
  {
    "formatted_address": "日本、宮崎県日南市",
    "name": "日南市",
    "place_id": "ChIJ7wvuoPDUODURbFkWNNFsmnI",
    "geometry": {
      "location": {
        "lat": 31.601975,
        "lng": 131.3787684
      }
    },
    "prefecture": "宮崎県"
  },
  {
    "formatted_address": "日本、宮崎県小林市",
    "name": "小林市",
    "place_id": "ChIJ7eGbFbxAPzUR3ccd9GiaaRQ",
    "geometry": {
      "location": {
        "lat": 31.9967791,
        "lng": 130.973069
      }
    },
    "prefecture": "宮崎県"
  },
  {
    "formatted_address": "日本、宮崎県",
    "name": "宮崎県",
    "place_id": "ChIJYfx_FietODURKhlreMr3-Cg",
    "geometry": {
      "location": {
        "lat": 32.6036022,
        "lng": 131.441251
      }
    },
    "prefecture": "宮崎県"
  },
  {
    "formatted_address": "日本、鹿児島県薩摩川内市",
    "name": "薩摩川内市",
    "place_id": "ChIJw8NNiBgjPjURNdkDNOt8Akw",
    "geometry": {
      "location": {
        "lat": 31.8132856,
        "lng": 130.3034644
      }
    },
    "prefecture": "鹿児島県"
  },
  {
    "formatted_address": "日本、鹿児島県鹿屋市",
    "name": "鹿屋市",
    "place_id": "ChIJdwtvUJCTPjURmFTdKPuESsQ",
    "geometry": {
      "location": {
        "lat": 31.3782477,
        "lng": 130.8522618
      }
    },
    "prefecture": "鹿児島県"
  },
  {
    "formatted_address": "日本、鹿児島県枕崎市",
    "name": "枕崎市",
    "place_id": "ChIJzyccA_jdPTUR8QEi_n4E6DU",
    "geometry": {
      "location": {
        "lat": 31.2728662,
        "lng": 130.2966917
      }
    },
    "prefecture": "鹿児島県"
  },
  {
    "formatted_address": "日本、鹿児島県霧島市",
    "name": "霧島市",
    "place_id": "ChIJn9EiMFf8PjURH5FYtNAhpAg",
    "geometry": {
      "location": {
        "lat": 31.7407317,
        "lng": 130.7633282
      }
    },
    "prefecture": "鹿児島県"
  },
  {
    "formatted_address": "日本、鹿児島県",
    "name": "鹿児島県",
    "place_id": "ChIJA4AW0cJbGDURcNZa6PLRr40",
    "geometry": {
      "location": {
        "lat": 31.3911958,
        "lng": 130.8778586
      }
    },
    "prefecture": "鹿児島県"
  },
  {
    "formatted_address": "日本、〒905-1421 沖縄県国頭郡国頭村辺戸",
    "name": "辺戸岬",
    "place_id": "ChIJsVsyW1ts5DQRX7Fc17sFmHM",
    "geometry": {
      "location": {
        "lat": 26.872109,
        "lng": 128.264716
      }
    },
    "prefecture": "沖縄県"
  },
  {
    "formatted_address": "日本、沖縄県",
    "name": "沖縄県",
    "place_id": "ChIJ51ur7mJw9TQR79H9hnJhuzU",
    "geometry": {
      "location": {
        "lat": 26.1201911,
        "lng": 127.7025012
      }
    },
    "prefecture": "沖縄県"
  },
  {
    "formatted_address": "日本、沖縄県那覇市",
    "name": "那覇市",
    "place_id": "ChIJi7WmQXFp5TQRmF5YFvav2Cw",
    "geometry": {
      "location": {
        "lat": 26.2125758,
        "lng": 127.6790208
      }
    },
    "prefecture": "沖縄県"
  },
  {
    "formatted_address": "日本、沖縄県名護市",
    "name": "名護市",
    "place_id": "ChIJ2W27OCxU5DQRp7t6hVB8UOk",
    "geometry": {
      "location": {
        "lat": 26.5915575,
        "lng": 127.9775272
      }
    },
    "prefecture": "沖縄県"
  },
  {
    "formatted_address": "日本、〒905-0206 沖縄県国頭郡本部町石川424番地",
    "name": "海洋博公園",
    "place_id": "ChIJja-5Bsv75DQRxL_IBwlgWZk",
    "geometry": {
      "location": {
        "lat": 26.694338,
        "lng": 127.8780131
      }
    },
    "prefecture": "沖縄県"
  }
]
